[
  {
    "id": "c1",
    "name": "Timisoara - City of Flowers",
    "image": {
      "src": "timisoara-city.jpeg",
      "alt": "Timisoara green city!"
    },
    "population": 430000,
    "area": 1080,
    "lat": 45.4535,
    "lon": 21.1348,
    "description": "Nicknamed the Little Vienna or the City of Flowers, Timi≈üoara is considered the informal capital city of the historical Banat."
  },
  {
    "id": "c2",
    "name": "Cluj-Napoca - Treasure City",
    "image": {
      "src": "cluj-city.jpeg",
      "alt": "Cluj city!"
    },
    "population": 411379,
    "area": 1537,
    "lat": 46.46,
    "lon": 23.35
  },
  {
    "id": "c3",
    "name": "Brasov - Corona City",
    "image": {
      "src": "brasov-city.jpeg",
      "alt": "Brasov city!"
    },
    "population": 371802,
    "area": 1368,
    "lat": 45.4,
    "lon": 25.37
  },
  {
    "id": "c4",
    "name": "Oradea - City",
    "image": {
      "src": "oradea-city.jpeg",
      "alt": "Oradea city!"
    },
    "population": 245537,
    "area": 116,
    "lat": 47.042,
    "lon": 21.5516
  },
  {
    "id": "c5",
    "name": "Sighisoara - City",
    "image": {
      "src": "sighisoara-city.jpeg",
      "alt": "Sighisoara city!"
    },
    "population": 23927,
    "area": 96,
    "lat": 46.131,
    "lon": 24.4728
  },
  {
    "id": "c6",
    "name": "Bucuresti - City",
    "image": {
      "src": "bucuresti-city.jpeg",
      "alt": "Bucuresti city!"
    },
    "population": 2304408,
    "area": 1803,
    "lat": 44.2557,
    "lon": 26.614
  },
  {
    "id": "c7",
    "name": "Constanta - City",
    "image": {
      "src": "constanta-city.jpeg",
      "alt": "Constanta city!"
    },
    "population": 425916,
    "area": 1013,
    "lat": 44.1,
    "lon": 28.38
  },
  {
    "id": "c8",
    "name": "Piatra-Neamt - City",
    "image": {
      "src": "piatra-neamt-city.jpeg",
      "alt": "Piatra-Neamt city!"
    },
    "population": 79679,
    "area": 77.4,
    "lat": 46.5539,
    "lon": 26.2215
  },
  {
    "id": "c9",
    "name": "Iasi - City",
    "image": {
      "src": "iasi-city.jpeg",
      "alt": "Iasi city!"
    },
    "population": 423154,
    "area": 1159,
    "lat": 47.0944,
    "lon": 27.352
  },
  {
    "id": "c10",
    "name": "Craiova - City",
    "image": {
      "src": "craiova-city.jpeg",
      "alt": "Craiova city!"
    },
    "population": 356544,
    "area": 1498,
    "lat": 44.2,
    "lon": 23.49
  }
]
